{
  "locations": [
    {
      "id": 1,
      "locationName": "Digikala Central Warehouse",
      "addressLine1": "123 Fath Hwy",
      "addressLine2": "Warehouse B",
      "city": "Tehran",
      "state": "Tehran Province",
      "zipCode": "1387654321",
      "country": "Iran",
      "latitude": 35.6943,
      "longitude": 51.3347,
      "locationNotes": "Main distribution hub. Use gate 3 for pickups."
    },
    {
      "id": 2,
      "locationName": "Iran Mall",
      "addressLine1": "456 Kharazi Hwy",
      "addressLine2": "Shop G-212",
      "city": "Tehran",
      "state": "Tehran Province",
      "zipCode": "1487813161",
      "country": "Iran",
      "latitude": 35.7533,
      "longitude": 51.2183,
      "locationNotes": "Deliver to the electronics store next to the food court."
    },
    {
      "id": 3,
      "locationName": "Sa'adat Abad Cafe",
      "addressLine1": "789 Kaj Square",
      "addressLine2": "",
      "city": "Tehran",
      "state": "Tehran Province",
      "zipCode": "1998612345",
      "country": "Iran",
      "latitude": 35.7876,
      "longitude": 51.3787,
      "locationNotes": "Coffee machine parts delivery."
    },
    {
      "id": 4,
      "locationName": "Niavaran Residence",
      "addressLine1": "101 Pasdaran Ave",
      "addressLine2": "Apt 15B",
      "city": "Tehran",
      "state": "Tehran Province",
      "zipCode": "1956987654",
      "country": "Iran",
      "latitude": 35.8166,
      "longitude": 51.4646,
      "locationNotes": "Call upon arrival. Doorman has the access code."
    },
    {
      "id": 5,
      "locationName": "Vanak Office Tower",
      "addressLine1": "212 Vali-e-Asr St",
      "addressLine2": "Floor 8, Unit 802",
      "city": "Tehran",
      "state": "Tehran Province",
      "zipCode": "1994654321",
      "country": "Iran",
      "latitude": 35.7594,
      "longitude": 51.411,
      "locationNotes": "Use the service elevator."
    },
    {
      "id": 6,
      "locationName": "Tehranpars Medical Clinic",
      "addressLine1": "333 Resalat Hwy",
      "addressLine2": "",
      "city": "Tehran",
      "state": "Tehran Province",
      "zipCode": "1653812345",
      "country": "Iran",
      "latitude": 35.7289,
      "longitude": 51.5273,
      "locationNotes": "Deliver medical supplies to the reception."
    },
    {
      "id": 7,
      "locationName": "Enghelab Sq. Bookstore",
      "addressLine1": "Enghelab Sq.",
      "addressLine2": "Next to the Metro Station",
      "city": "Tehran",
      "state": "Tehran Province",
      "zipCode": "1136912345",
      "country": "Iran",
      "latitude": 35.7011,
      "longitude": 51.3912,
      "locationNotes": "Heavy boxes. Bring a dolly."
    },
    {
      "id": 8,
      "locationName": "Ferdowsi Grand Hotel",
      "addressLine1": "24 No-fel Loshato St",
      "addressLine2": "Service Entrance",
      "city": "Tehran",
      "state": "Tehran Province",
      "zipCode": "1144834411",
      "country": "Iran",
      "latitude": 35.6924,
      "longitude": 51.4208,
      "locationNotes": "Restaurant kitchen supply delivery."
    },
    {
      "id": 9,
      "locationName": "Palladium Mall",
      "addressLine1": "Moqaddas Ardabili St",
      "addressLine2": "Loading Dock 4",
      "city": "Tehran",
      "state": "Tehran Province",
      "zipCode": "1986912345",
      "country": "Iran",
      "latitude": 35.8048,
      "longitude": 51.4348,
      "locationNotes": "Check in with security."
    },
    {
      "id": 10,
      "locationName": "Azadi Tower Maintenance",
      "addressLine1": "Azadi Square",
      "addressLine2": "West Wing Office",
      "city": "Tehran",
      "state": "Tehran Province",
      "zipCode": "1391912345",
      "country": "Iran",
      "latitude": 35.6997,
      "longitude": 51.3381,
      "locationNotes": "Service call for HVAC system."
    }
  ],
  "contacts": [
    {
      "id": 1,
      "name": "Sara Ahmadi",
      "email": "sara.a@example.com",
      "phone": "+989121112233",
      "notificationPreference": "SMS"
    },
    {
      "id": 2,
      "name": "Reza Karimi",
      "email": "r.karimi@example.com",
      "phone": "+989124445566",
      "notificationPreference": "Email"
    },
    {
      "id": 3,
      "name": "Maryam Hosseini",
      "email": "maryam.h@example.com",
      "phone": "+989127778899",
      "notificationPreference": "SMS"
    },
    {
      "id": 4,
      "name": "Ali Mohammadi",
      "email": "ali.m@example.com",
      "phone": "+989121234567",
      "notificationPreference": "None"
    },
    {
      "id": 5,
      "name": "Fatemeh Rezaei",
      "email": "fatemeh.r@example.com",
      "phone": "+989128901234",
      "notificationPreference": "Email"
    },
    {
      "id": 6,
      "name": "Kian Tavakoli",
      "email": "kian.t@example.com",
      "phone": "+989125678901",
      "notificationPreference": "SMS"
    },
    {
      "id": 7,
      "name": "Narges Jafari",
      "email": "n.jafari@example.com",
      "phone": "+989122345678",
      "notificationPreference": "SMS"
    },
    {
      "id": 8,
      "name": "Mehdi Hashemi",
      "email": "mehdi.h@example.com",
      "phone": "+989129012345",
      "notificationPreference": "Email"
    },
    {
      "id": 9,
      "name": "Yasmin Ghasemi",
      "email": "yasmin.g@example.com",
      "phone": "+989126789012",
      "notificationPreference": "SMS"
    },
    {
      "id": 10,
      "name": "Hossein Abbasi",
      "email": "hossein.a@example.com",
      "phone": "+989123456789",
      "notificationPreference": "None"
    }
  ],
  "drivers": [
    {
      "id": 1,
      "name": "Amir Rezvani",
      "skills": [
        "Heavy Lifting",
        "Customer Service"
      ],
      "vehicleFeatures": [
        "Van",
        "GPS"
      ]
    },
    {
      "id": 2,
      "name": "Leila Farhadi",
      "skills": [
        "Fragile Goods",
        "Punctual"
      ],
      "vehicleFeatures": [
        "Small Truck",
        "Refrigerated"
      ]
    },
    {
      "id": 3,
      "name": "Babak Norouzi",
      "skills": [
        "HVAC Repair",
        "Technical Installation"
      ],
      "vehicleFeatures": [
        "Service Van",
        "Tool Rack"
      ]
    },
    {
      "id": 4,
      "name": "Shirin Ebrahimi",
      "skills": [
        "Medical Delivery Certified"
      ],
      "vehicleFeatures": [
        "Sedan",
        "GPS"
      ]
    },
    {
      "id": 5,
      "name": "Sina Mansouri",
      "skills": [
        "Heavy Lifting"
      ],
      "vehicleFeatures": [
        "Large Truck"
      ]
    }
  ],
  "orders": [
    {
      "id": 101,
      "orderType": "Delivery",
      "date": "2025-09-16",
      "duration": 60,
      "priority": "High",
      "notes": "Fragile electronics. Handle with extreme care.",
      "checkInTime": null,
      "barcode": "BRC-88742-2025",
      "locationId": 2,
      "contactId": 1,
      "driverId": 2,
      "loads": [
        {
          "loadNumber": 1,
          "weight": 25,
          "volume": 0.5
        }
      ],
      "timeWindows": [
        {
          "from": "2025-09-16T10:00:00",
          "to": "2025-09-16T12:00:00"
        }
      ],
      "active": false
    },
    {
      "id": 102,
      "orderType": "Pickup",
      "date": "2025-09-16",
      "duration": 45,
      "priority": "Medium",
      "notes": "Pickup return items from customer.",
      "checkInTime": null,
      "barcode": "BRC-88743-2025",
      "locationId": 3,
      "contactId": 2,
      "driverId": 1,
      "loads": [
        {
          "loadNumber": 1,
          "weight": 15,
          "volume": 0.2
        }
      ],
      "timeWindows": [
        {
          "from": "2025-09-16T14:00:00",
          "to": "2025-09-16T16:00:00"
        }
      ],
      "active": false
    },
    {
      "id": 103,
      "orderType": "Service",
      "date": "2025-09-17",
      "duration": 120,
      "priority": "High",
      "notes": "Annual maintenance for Azadi Tower HVAC unit.",
      "checkInTime": null,
      "barcode": "BRC-88744-2025",
      "locationId": 10,
      "contactId": 8,
      "driverId": 3,
      "loads": [],
      "timeWindows": [
        {
          "from": "2025-09-17T09:00:00",
          "to": "2025-09-17T11:00:00"
        }
      ],
      "active": true
    },
    {
      "id": 104,
      "orderType": "Delivery",
      "date": "2025-09-17",
      "duration": 75,
      "priority": "Low",
      "notes": "Bulk book order. 10 boxes.",
      "checkInTime": null,
      "barcode": "BRC-88745-2025",
      "locationId": 7,
      "contactId": 4,
      "driverId": 5,
      "loads": [
        {
          "loadNumber": 1,
          "weight": 150,
          "volume": 1.2
        }
      ],
      "timeWindows": [
        {
          "from": "2025-09-17T13:00:00",
          "to": "2025-09-17T17:00:00"
        }
      ],
      "active": false
    },
    {
      "id": 105,
      "orderType": "Delivery",
      "date": "2025-09-18",
      "duration": 50,
      "priority": "Medium",
      "notes": "Medical supplies, temperature sensitive.",
      "checkInTime": null,
      "barcode": "BRC-88746-2025",
      "locationId": 6,
      "contactId": 7,
      "driverId": 2,
      "loads": [
        {
          "loadNumber": 1,
          "weight": 30,
          "volume": 0.4
        }
      ],
      "timeWindows": [
        {
          "from": "2025-09-18T11:00:00",
          "to": "2025-09-18T12:00:00"
        }
      ],
      "active": false
    }
  ]
}